City_ID,City,Cloudiness,Country,Date,Humidity,Lat,Lng,Max Temp,Wind Speed
2075265,Busselton,0,AU,1680458211,92,-33.65,115.3333,59.36,9.15
2126123,Chokurdakh,47,RU,1680458213,98,70.6333,147.9167,-17.93,9.51
5848280,Kapaa,75,US,1680458214,93,22.0752,-159.319,71.92,5.75
4155996,Fort Myers Beach,0,US,1680458215,70,26.452,-81.9481,89.06,9.22
1282256,Hithadhoo,58,MV,1680458216,72,-0.6,73.0833,82.72,7.7
5866583,Saint Paul Harbor,0,US,1680458033,59,57.79,-152.4072,31.51,11.5
5122534,Jamestown,0,US,1680458218,37,42.097,-79.2353,39.52,9.22
4030556,Rikitea,45,PF,1680458220,80,-23.1203,-134.9692,80.53,14.63
3430863,Mar del Plata,0,AR,1680458221,45,-38.0023,-57.5575,77.95,6.91
359792,Aswān,0,EG,1680458222,13,24.0934,32.907,81.7,6.91
3347019,Mossamedes,60,AO,1680458224,77,-15.1961,12.1522,77.5,16.53
1640972,Katobu,100,ID,1680458226,94,-4.9408,122.5276,74.5,1.88
4034496,Fare,84,PF,1680458227,73,-16.7,-151.0167,82.0,6.96
2447513,Arlit,69,NE,1680458228,3,18.7369,7.3853,83.68,10.65
5847411,Kahului,40,US,1680458229,83,20.8947,-156.47,76.84,6.91
3366880,Hermanus,20,ZA,1680458230,95,-34.4187,19.2345,67.8,1.57
2063036,Port Lincoln,100,AU,1680458231,66,-34.7333,135.8667,61.59,9.95
5919850,Chapais,85,CA,1680458233,69,49.7834,-74.8492,10.18,9.42
3446587,Terra Nova,41,BR,1680458234,25,-12.3667,-40.6667,92.08,4.32
616062,Ranchpar,20,AM,1680458235,46,40.0275,44.367,52.09,3.44
6201424,Mataura,67,NZ,1680458236,91,-46.1927,168.8643,42.85,2.15
3874787,Punta Arenas,75,CL,1680457939,36,-53.15,-70.9167,59.11,23.02
1735799,Sri Aman,100,MY,1680458239,100,1.2376,111.4621,71.65,0.0
5853992,Wahiawā,75,US,1680458240,88,21.5028,-158.0236,72.18,0.0
2618795,Klaksvík,78,FO,1680458241,73,62.2266,-6.589,45.52,9.15
3691712,Soritor,90,PE,1680458243,63,-6.1392,-77.1039,79.61,2.62
964432,Port Alfred,55,ZA,1680458245,92,-33.5906,26.891,72.18,1.01
3652764,Puerto Ayora,76,EC,1680458247,85,-0.7393,-90.3518,85.96,8.99
3424607,Tasiilaq,100,GL,1680458248,74,65.6145,-37.6368,31.32,0.69
3833367,Ushuaia,0,AR,1680458250,50,-54.8,-68.3,53.26,10.36
686090,Asău,100,RO,1680458251,89,46.4333,26.4,50.92,2.95
4020109,Atuona,63,PF,1680458252,76,-9.8,-139.0333,81.25,17.38
5274867,Sturgeon Bay,0,US,1680457981,75,44.8342,-87.377,36.0,14.97
6167817,Torbay,100,CA,1680458255,76,47.6666,-52.7314,45.37,18.41
2077895,Alice Springs,75,AU,1680458256,72,-23.7,133.8833,67.55,0.0
2158767,Mareeba,53,AU,1680458257,96,-17.0,145.4333,74.48,1.59
5364271,Laguna,0,US,1680458136,64,38.421,-121.4238,58.14,12.66
5969025,Haines Junction,77,CA,1680458260,62,60.7522,-137.5108,12.15,0.0
1255816,Sompeta,29,IN,1680458261,77,18.9333,84.6,79.83,10.25
3466165,Cidreira,37,BR,1680458262,53,-30.1811,-50.2056,73.4,7.87
3945985,Camaná,47,PE,1680458263,75,-16.6228,-72.7111,78.12,7.87
3471451,Arraial do Cabo,75,BR,1680458264,65,-22.9661,-42.0278,78.66,12.66
3171148,Pescia,95,IT,1680458265,49,43.897,10.6904,60.64,8.99
3372783,Ponta Delgada,40,PT,1680458267,67,37.7333,-25.6667,61.52,19.57
3870282,Talcahuano,0,CL,1680458268,72,-36.7167,-73.1167,62.28,8.05
2206939,Bluff,81,NZ,1680458269,76,-46.6,168.3333,50.99,6.35
2027316,Ayan,100,RU,1680458270,76,56.45,138.1667,17.17,8.59
2270385,Camacha,20,PT,1680458271,68,33.0833,-16.3333,63.82,13.8
293842,Kiryat Gat,5,IL,1680458272,100,31.61,34.7642,66.4,8.1
5859699,College,75,US,1680458024,87,64.8569,-147.8028,26.55,9.22
2122090,Pevek,100,RU,1680458254,100,69.7008,170.3133,-25.87,2.17
687726,Zaozyornoye,100,UA,1680458275,92,45.1582,33.2787,49.33,20.18
2163355,Hobart,54,AU,1680458142,81,-42.8794,147.3294,54.05,4.61
4452303,Albemarle,0,US,1680458278,40,35.3501,-80.2001,65.61,0.0
2641434,Northam,53,GB,1680458279,80,51.0333,-4.2167,50.61,7.81
3761194,Miraflores,0,MX,1680458280,27,19.2167,-98.8083,76.03,3.67
470905,Vuktyl,62,RU,1680458281,98,63.8567,57.3094,23.2,2.84
1563281,Tuy Hoa,15,VN,1680458283,93,13.0833,109.3,74.98,3.31
2264557,Ponta do Sol,1,PT,1680458285,75,32.6667,-17.1,70.72,4.85
1257928,Sabalgarh,39,IN,1680458286,45,26.25,77.4,77.0,3.94
3577430,Road Town,40,VG,1680458287,58,18.4167,-64.6167,84.29,13.8
2110227,Butaritari,27,KI,1680458288,75,3.0707,172.7902,81.66,8.75
3459785,João Pinheiro,92,BR,1680458290,41,-17.7425,-46.1725,85.5,5.64
3448903,São João da Barra,82,BR,1680458015,60,-21.6403,-41.0511,87.89,17.45
2729907,Longyearbyen,100,SJ,1680458292,93,78.2186,15.6401,19.24,4.61
3441575,Montevideo,75,UY,1680458293,53,-34.8335,-56.1674,73.42,5.01
6050066,La Ronge,75,CA,1680458294,62,55.1001,-105.2842,14.25,16.11
4032243,Vaini,20,TO,1680458295,94,-21.2,-175.2,73.56,5.75
964420,Port Elizabeth,0,ZA,1680458296,89,-33.918,25.5701,71.31,5.75
3831208,Qaanaaq,15,GL,1680458297,68,77.484,-69.3632,-6.88,1.14
2986159,Arrondissement de Pontivy,83,FR,1680458300,80,48.0,-3.0,51.31,10.31
731771,Dve Mogili,61,BG,1680458301,68,43.6,25.8667,51.62,2.46
934322,Mahébourg,75,MU,1680458302,89,-20.4081,57.7,79.25,10.36
2015306,Tiksi,100,RU,1680458303,79,71.6872,128.8694,13.6,31.21
3380290,Sinnamary,86,GF,1680458304,68,5.3833,-52.95,82.02,11.41
3421719,Narsaq,100,GL,1680458305,58,60.9167,-46.05,33.03,3.11
6170031,Tuktoyaktuk,20,CA,1680458311,70,69.4541,-133.0374,-9.4,9.22
3395458,Maragogi,85,BR,1680458312,66,-9.0122,-35.2225,82.85,9.17
2515271,Las Palmas,0,ES,1680458313,78,28.4204,-14.0131,66.99,20.71
467479,Yenotayevka,54,RU,1680458314,47,47.2456,47.0281,53.19,7.14
3421765,Nanortalik,100,GL,1680458315,73,60.1432,-45.2371,32.65,9.1
5855927,Hilo,75,US,1680458316,92,19.7297,-155.09,74.28,5.75
1633419,Padang,43,ID,1680458317,87,-0.9492,100.3543,77.05,3.2
3369157,Cape Town,75,ZA,1680458106,90,-33.9258,18.4232,67.87,13.8
5282297,Bethel,0,US,1680458319,27,41.3712,-73.414,49.89,19.57
5225507,Warwick,40,US,1680458097,30,41.7001,-71.4162,52.09,19.57
3994535,Ocampo,94,MX,1680458322,23,21.65,-101.5,76.12,6.49
1786855,Yatou,52,CN,1680458323,45,37.15,122.3833,50.14,4.52
4035715,Avarua,75,CK,1680458324,78,-21.2078,-159.775,78.85,11.5
2514651,Los Llanos de Aridane,20,ES,1680458325,68,28.6585,-17.9182,67.75,13.8
3883457,Lebu,32,CL,1680458326,73,-37.6167,-73.65,59.09,16.2
1106677,Bambous Virieux,75,MU,1680458327,89,-20.3428,57.7575,79.21,10.36
5546220,Saint George,0,US,1680458095,36,37.1041,-113.5841,62.44,3.44
2028462,Ulaanbaatar,0,MN,1680458330,66,47.9077,106.8832,6.93,4.47
1529484,Kumul,30,CN,1680458332,23,42.8,93.45,38.71,4.07
1651810,Airai,79,TL,1680458333,93,-8.9266,125.4092,59.99,0.36
1814093,Dali,46,CN,1680458334,82,25.7,100.1833,49.08,6.24
2074865,Carnarvon,88,AU,1680458335,77,-24.8667,113.6333,74.41,11.99
87205,Darnah,54,LY,1680458337,24,32.767,22.6367,74.25,22.93
921786,Mitsamiouli,100,KM,1680458338,79,-11.3847,43.2844,81.36,5.37
2122104,Petropavlovsk-Kamchatskiy,0,RU,1680458339,80,53.0452,158.6483,27.19,4.47
6185377,Yellowknife,100,CA,1680458340,72,62.456,-114.3525,5.52,4.61
1734313,Paka,97,MY,1680458341,88,4.6374,103.4368,76.93,2.3
100926,Umluj,0,SA,1680458342,58,25.0213,37.2685,73.45,7.92
1507390,Dikson,100,RU,1680458344,97,73.5069,80.5464,-9.72,10.89
3372707,Ribeira Grande,20,PT,1680458346,55,38.5167,-28.7,61.2,23.02
1794971,Shitanjing,93,CN,1680458347,31,39.2342,106.3439,35.85,4.38
4031574,Provideniya,12,RU,1680458348,94,64.3833,-173.3,-2.07,4.72
5762718,Belle Fourche,68,US,1680458333,32,44.6714,-103.8522,50.05,22.77
1504382,Kargasok,100,RU,1680458350,81,59.0556,80.8572,31.77,12.93
1581349,Ha Giang,44,VN,1680458352,97,22.8333,104.9833,73.71,2.35
7647007,Bariloche,20,AR,1680458354,44,-41.1456,-71.3082,60.55,10.36
2630299,Hofn,76,IS,1680458355,70,64.2539,-15.2082,42.01,7.0
3466704,Castro,73,BR,1680458356,65,-24.7911,-50.0119,74.73,3.89
2071860,Esperance,0,AU,1680458357,82,-33.8667,121.9,62.74,8.88
124291,Mehrān,0,IR,1680458359,41,33.1222,46.1646,59.74,7.31
986717,Kruisfontein,60,ZA,1680458360,47,-34.0033,24.7314,67.89,3.49
2093967,Kimbe,91,PG,1680458361,93,-5.5502,150.1429,75.38,3.44
935215,Saint-Philippe,100,RE,1680458362,81,-21.3585,55.7679,78.39,6.53
935248,Sainte-Suzanne,99,RE,1680458363,69,-20.9061,55.6089,79.02,11.5
5881688,Fort Saint James,23,CA,1680458365,70,54.4333,-124.25,33.28,1.99
5106841,Albany,5,US,1680458366,32,42.6001,-73.9662,43.18,13.0
3461370,Imbituba,0,BR,1680458367,55,-28.24,-48.6703,74.71,10.33
1649150,Bengkulu,87,ID,1680458368,90,-3.8004,102.2655,74.73,4.63
1651591,Amahai,100,ID,1680458369,86,-3.3333,128.9167,77.59,2.08
2022572,Khatanga,100,RU,1680458371,97,71.9667,102.5,21.11,3.22
2142316,Yeppoon,99,AU,1680458372,84,-23.1333,150.7333,65.98,10.0
2027296,Aykhal,100,RU,1680458373,92,66.0,111.5,18.03,26.08
627905,Horki,100,BY,1680458374,97,54.2861,30.9842,35.13,14.45
2138555,Poum,20,NC,1680458375,75,-20.2333,164.0167,78.6,7.27
556268,Ostrovnoy,100,RU,1680458376,74,68.0531,39.5131,21.81,9.42
1791779,Wanning,70,CN,1680458377,90,18.8003,110.3967,76.84,10.42
6096551,Pangnirtung,100,CA,1680458378,45,66.1451,-65.7125,15.8,4.61
3418910,Upernavik,84,GL,1680458380,93,72.7868,-56.1549,-13.9,5.7
1735106,George Town,20,MY,1680458349,89,5.4112,100.3354,80.55,2.3
1006984,East London,0,ZA,1680458382,88,-33.0153,27.9116,74.34,10.36
3083826,Szczecinek,6,PL,1680458383,62,53.7079,16.6994,34.12,13.09
5955902,Fort Nelson,100,CA,1680458384,61,58.8053,-122.7002,25.95,3.0
5880054,Barrow,100,US,1680458385,92,71.2906,-156.7887,6.26,12.03
3451138,Rio Grande,67,BR,1680458386,55,-32.035,-52.0986,80.71,7.56
1863997,Fukuechō,0,JP,1680458387,70,32.6881,128.8419,57.96,27.04
1079048,Ambovombe,50,MG,1680458388,85,-25.1667,46.0833,73.04,13.82
1150489,Tak,3,TH,1680458389,66,16.5833,98.8333,67.26,2.21
3887127,Iquique,7,CL,1680458390,73,-20.2208,-70.1431,82.44,6.13
528278,Mayna,100,RU,1680458391,81,54.1135,47.6231,42.58,7.38
4839373,New Haven,0,US,1680458392,31,41.4001,-72.9329,49.42,17.27
2334008,Kontagora,81,NG,1680458394,13,10.3999,5.4695,90.86,3.85
3372472,Vila Franca do Campo,50,PT,1680458395,63,37.7167,-25.4333,61.21,14.5
6111862,Port Hardy,75,CA,1680458396,81,50.6996,-127.4199,39.38,2.3
583673,Aksay,99,RU,1680458397,41,47.26,39.87,54.25,11.01
2629833,Husavik,66,IS,1680458398,84,66.0449,-17.3389,36.7,5.48
2092164,Lorengau,78,PG,1680458399,81,-2.0226,147.2712,79.52,3.2
3899695,Ancud,10,CL,1680458400,56,-41.8697,-73.8203,57.13,6.64
1529660,Aksu,0,CN,1680458402,15,41.1231,80.2644,52.5,7.02
2122493,Omsukchan,100,RU,1680458404,99,62.5333,155.8,-9.9,3.94
60019,Eyl,36,SO,1680458405,73,7.9803,49.8164,82.74,11.86
4726521,San Patricio,93,US,1680458407,45,28.017,-97.5169,87.17,16.73
3474574,Palmas,40,BR,1680458322,70,-10.2128,-48.3603,84.07,5.75
4470244,Havelock,0,US,1680458295,46,34.8791,-76.9013,66.97,5.75
655808,Joensuu,20,FI,1680458424,64,62.6012,29.7632,28.89,5.75
1493162,Salym,100,RU,1680458434,94,60.0625,71.4789,37.96,7.16
1078553,Ampanihy,49,MG,1680458435,87,-24.7,44.75,70.9,13.09
2112309,Katsuura,100,JP,1680458437,71,35.1333,140.3,49.35,10.33
64814,Bandarbeyla,6,SO,1680458438,74,9.4942,50.8122,82.02,9.82
3374083,Bathsheba,75,BB,1680458439,65,13.2167,-59.5167,84.81,24.16
326321,Wendo,98,ET,1680458441,90,6.6,38.4167,60.33,6.85
1490256,Talnakh,100,RU,1680458442,97,69.4865,88.3972,22.21,6.64
2371467,Mansôa,0,GW,1680458444,27,12.0733,-15.3189,91.6,14.45
3443061,Chui,52,UY,1680458445,47,-33.6971,-53.4616,71.13,4.76
3135601,Stryn,13,NO,1680458446,78,61.9045,6.7226,45.32,3.8
2070998,Geraldton,6,AU,1680458447,88,-28.7667,114.6,66.61,6.91
4741325,Wharton,100,US,1680458339,79,29.3116,-96.1027,82.89,13.8
3416888,Grindavik,100,IS,1680458449,75,63.8424,-22.4338,44.55,14.97
1056899,Sambava,100,MG,1680458451,99,-14.2667,50.1667,73.08,1.99
3667202,Tibú,98,CO,1680458452,46,8.639,-72.7358,92.25,2.51
3625710,Upata,90,VE,1680458453,36,8.0086,-62.3989,90.61,8.48
2015913,Suntar,14,RU,1680458458,91,62.1444,117.6319,9.7,7.2
3372964,Lagoa,29,PT,1680458459,57,39.05,-27.9833,56.21,26.37
1734052,Sandakan,20,MY,1680458460,94,5.8402,118.1179,76.68,3.44
3361934,Saldanha,31,ZA,1680458462,95,-33.0117,17.9442,64.45,12.24
3576994,Cockburn Town,40,TC,1680458463,54,21.4612,-71.1419,80.56,10.36
2738381,Lata,69,PT,1680458464,63,40.1629,-8.3327,56.61,5.86
538442,Kusa,7,RU,1680458466,70,55.3383,59.4406,35.58,4.03
2180815,Tuatapere,71,NZ,1680458467,89,-46.1333,167.6833,43.27,2.86
3445026,Vila Velha,20,BR,1680458468,63,-20.3297,-40.2925,81.95,17.27
2020738,Litovko,23,RU,1680458470,68,49.2361,135.1742,41.32,0.69
2235194,Ombessa,78,CM,1680458472,72,4.603,11.2565,76.8,3.13
4032369,Pangai,2,TO,1680458473,66,-19.8,-174.35,79.84,17.25
1015776,Bredasdorp,18,ZA,1680458475,90,-34.5322,20.0403,66.0,3.24
238373,Kembé,53,CF,1680458476,42,4.6228,21.8865,82.47,2.89
5044290,Saint Anthony,75,US,1680458431,49,45.0205,-93.218,46.33,17.27
3690172,Algarrobo,49,CO,1680458478,26,10.1869,-74.5753,101.89,4.12
2127202,Anadyr,0,RU,1680458479,71,64.75,177.4833,1.9,4.47
2034615,Tahe,100,CN,1680458480,94,52.3333,124.7333,30.7,3.11
587923,Väike-Maarja,14,EE,1680458482,89,59.1264,26.25,27.14,8.99
2033196,Zhangjiakou,100,CN,1680458483,80,40.81,114.8794,44.83,6.24
5164057,Napoleon,98,US,1680458484,60,41.3923,-84.1252,45.19,7.72
4021858,Guerrero Negro,0,MX,1680458381,59,27.9769,-114.0611,63.66,15.68
1255619,Srīvardhan,22,IN,1680458488,72,18.0333,73.0167,76.5,5.82
1586350,Cam Ranh,20,VN,1680458489,83,11.9214,109.1591,80.56,3.44
2344415,Duku,25,NG,1680458490,9,11.2361,4.9073,94.73,2.28
1028434,Quelimane,93,MZ,1680458492,76,-17.8786,36.8883,75.76,5.91
3904906,Santa Cruz de la Sierra,40,BO,1680458299,58,-17.8,-63.1667,89.06,3.44
1489499,Togur,100,RU,1680458495,82,58.3631,82.8265,28.96,10.63
3639898,Guatire,88,VE,1680458496,56,10.4762,-66.5427,88.2,6.17
2119283,Zyryanka,75,RU,1680458497,100,65.75,150.85,-20.06,6.76
2206874,Waipawa,88,NZ,1680458499,91,-41.4122,175.5153,53.94,10.38
1819729,Hong Kong,99,HK,1680458429,93,22.2855,114.1577,71.96,1.01
1214658,Lhokseumawe,94,ID,1680458501,82,5.1801,97.1507,79.23,8.05
1268008,Kanniyākumāri,15,IN,1680458502,78,8.0833,77.5667,81.37,11.23
3661980,Tarauacá,95,BR,1680458503,91,-8.1614,-70.7656,78.96,3.78
3893726,Constitución,98,CL,1680458505,61,-35.3333,-72.4167,67.5,15.84
3385899,Tutóia,77,BR,1680458345,70,-2.7619,-42.2744,82.56,6.62
2063030,Port Pirie,57,AU,1680458507,47,-33.1833,138.0167,58.51,6.64
364933,Umm Kaddadah,76,SD,1680458508,11,13.6017,26.6876,77.67,12.93
2093691,Kokoda,95,PG,1680458509,91,-8.8785,147.7407,75.02,0.27
5962442,Goderich,9,CA,1680458492,48,43.7501,-81.7165,37.9,12.66
3420846,Qaqortoq,100,GL,1680458512,63,60.7167,-46.0333,32.83,5.7
1259385,Port Blair,40,IN,1680458513,83,11.6667,92.75,78.84,0.0
2206854,Gisborne,8,NZ,1680458514,89,-38.6533,178.0042,59.31,3.65
1174451,Keti Bandar,3,PK,1680458515,75,24.1447,67.4497,77.25,15.88
6089245,Norman Wells,75,CA,1680458516,78,65.282,-126.8329,5.04,5.75
6316343,Alta Floresta,75,BR,1680458517,70,-9.8756,-56.0861,87.62,3.44
5478673,Meadow Lake,0,US,1680458518,11,34.8014,-106.5436,65.86,15.32
2610343,Vestmanna,20,FO,1680458519,81,62.1564,-7.1664,43.72,8.05
2155415,New Norfolk,80,AU,1680458521,73,-42.7826,147.0587,53.71,2.08
3137469,Sørland,100,NO,1680458522,63,67.667,12.6934,35.46,14.29
1496633,Novovarshavka,16,RU,1680458523,70,54.1721,74.6946,25.11,7.34
286621,Salalah,27,OM,1680458525,77,17.0151,54.0924,82.47,7.31
6620339,Karratha,96,AU,1680458526,73,-20.7377,116.8463,83.16,8.23
583345,Aleksandrov Gay,7,RU,1680458527,41,50.147,48.5704,51.73,7.47
1520240,Pavlodar,0,KZ,1680458529,63,52.3,76.95,24.6,6.71
546105,Nikolskoye,80,RU,1680458530,89,59.7035,30.7861,33.69,9.89
1731298,Aloleng,36,PH,1680458531,81,16.1307,119.7824,77.94,5.03
2012530,Zhigansk,100,RU,1680458533,94,66.7697,123.3711,19.53,20.4
2155562,Nelson Bay,34,AU,1680458534,98,-32.7167,152.15,64.0,5.01
2094342,Kavieng,100,PG,1680458535,81,-2.5744,150.7967,80.71,12.82
1235846,Matara,62,LK,1680458537,87,5.9485,80.5353,76.98,2.26
2317982,Yuli,54,NG,1680458538,11,9.6989,10.2744,90.28,4.52
3629604,Punta de Piedra,100,VE,1680458539,61,7.6176,-71.4916,85.08,3.11
780643,Bjørnevatn,75,NO,1680458540,86,69.6672,29.9847,23.34,10.36
3395981,Maceió,40,BR,1680458377,66,-9.6658,-35.7353,87.24,10.36
3622716,Nicoya,89,CR,1680458543,38,10.1483,-85.452,93.96,13.15
2112802,Hasaki,100,JP,1680458544,67,35.7333,140.8333,49.21,20.98
5882953,Aklavik,40,CA,1680458545,78,68.2191,-135.0107,-0.4,6.91
2208425,Zuwārah,33,LY,1680458546,67,32.9312,12.082,58.86,27.31
2134814,Sola,100,VU,1680458547,75,-13.8833,167.55,83.03,10.74
1517323,Zhanakorgan,95,KZ,1680458548,16,43.9098,67.2495,54.39,14.07
2291136,Bondoukou,82,CI,1680458549,68,8.0333,-2.8,78.35,9.35
3463124,Formosa do Rio Preto,32,BR,1680458551,27,-11.0483,-45.1931,93.96,4.16
3163146,Andenes,40,NO,1680458552,68,69.3143,16.1194,29.93,10.36
2126710,Beringovskiy,65,RU,1680458553,91,63.05,179.3167,10.63,4.12
6324729,Halifax,96,CA,1680458279,56,44.6453,-63.5724,46.69,10.0
4360369,Laurel,0,US,1680458555,39,39.0993,-76.8483,56.93,10.36
1083724,Ambanja,97,MG,1680458556,90,-13.6833,48.45,76.44,2.64
128234,Kerman,0,IR,1680458557,9,30.2832,57.0788,55.26,4.61
150099,Sepuka,50,TZ,1680458558,90,-4.75,34.5333,63.73,3.06
4845585,Westport,0,US,1680458548,23,41.1415,-73.3579,51.94,16.11
107304,Buraidah,0,SA,1680458560,17,26.326,43.975,68.45,8.63
4946620,Palmer,23,US,1680458561,28,42.1584,-72.3287,48.65,8.01
2038665,Alihe,100,CN,1680458562,86,50.5667,123.7167,37.27,0.27
2018896,Novopavlovka,75,RU,1680458564,71,51.2172,109.2091,12.36,10.56
1797595,Qinhuangdao,100,CN,1680458565,51,39.9317,119.5883,48.42,4.43
1701054,Marawi,99,PH,1680458566,94,7.9986,124.2928,69.22,2.42
187585,Marsabit,86,KE,1680458567,45,2.3284,37.9899,76.08,7.38
2093685,Kokopo,97,PG,1680458568,87,-4.352,152.2633,76.19,3.02
4231997,Avera,38,US,1680458569,35,33.194,-82.5271,74.91,4.38
1715335,Davila,5,PH,1680458571,80,18.4726,120.5763,77.22,10.94
2017155,Saskylakh,100,RU,1680458572,95,71.9167,114.0833,16.14,5.14
934479,Grand Gaube,100,MU,1680458573,74,-20.0064,57.6608,79.38,4.0
1687186,Sarangani,100,PH,1680458574,79,5.4033,125.4636,80.53,12.8
1648759,Bima,100,ID,1680458575,94,-8.4667,118.7167,75.54,0.16
3127460,Burgos,20,ES,1680458576,53,42.3394,-3.7079,48.61,12.66
236950,Obo,63,CF,1680458577,48,5.3998,26.4869,79.09,4.12
2090021,Namatanai,90,PG,1680458578,79,-3.6667,152.4333,79.27,7.0
4513583,Hamilton,75,US,1680458282,61,39.1834,-84.5333,51.42,12.66
2065594,Mount Isa,52,AU,1680458580,37,-20.7333,139.5,69.57,9.22
935214,Saint-Pierre,0,RE,1680458435,78,-21.3393,55.4781,78.48,4.61
2063042,Port Hedland,95,AU,1680458583,64,-20.3167,118.5667,85.05,11.32
773148,Dobre Miasto,90,PL,1680458584,58,53.9867,20.3975,35.51,15.93
667771,Şăulia,85,RO,1680458585,84,46.6333,24.2167,51.35,5.1
2263377,São Brás de Alportel,0,PT,1680458586,82,37.1531,-7.8875,67.48,8.05
3601039,Támara,0,HN,1680458587,29,14.15,-87.3333,76.75,16.11
525426,Sobolevo,100,RU,1680458589,96,54.4299,31.8996,36.5,11.36
2191562,Dunedin,8,NZ,1680458465,71,-45.8742,170.5036,51.8,3.0
3138747,Skodje,32,NO,1680458593,65,62.5021,6.7034,44.22,2.26
5345659,El Dorado,100,US,1680458595,89,38.7666,-120.5177,48.63,1.99
2126199,Cherskiy,58,RU,1680458596,100,68.75,161.3,-36.54,1.97
158160,Katoro,43,TZ,1680458597,89,-3.0203,31.8958,65.25,2.39
2025630,Chara,100,RU,1680458598,94,56.9064,118.2631,9.21,3.33
3894426,Coyhaique,75,CL,1680458575,54,-45.5752,-72.0662,55.35,4.61
5952330,Ferme-Neuve,19,CA,1680458601,75,46.7001,-75.4493,25.7,8.32
1496153,Omsk,0,RU,1680458602,68,55.0,73.4,30.09,7.0
1861416,Ishigaki,40,JP,1680458603,72,24.3448,124.1572,66.33,6.91
2028164,Deputatsky,72,RU,1680458605,91,69.3,139.9,-15.14,4.72
1150965,Ranong,16,TH,1680458607,79,9.9658,98.6348,78.28,3.27
214481,Kananga,22,CD,1680458608,92,-5.8958,22.4178,70.86,2.28
2269594,Cascais,0,PT,1680458611,53,38.6979,-9.4215,73.26,17.27
5850554,Makakilo City,100,US,1680458612,90,21.3469,-158.0858,72.01,0.0
5983720,Iqaluit,75,CA,1680458416,62,63.7506,-68.5145,11.93,6.91
5110365,Broome,0,US,1680458615,42,42.2506,-75.833,40.01,11.5
5972762,Hay River,100,CA,1680458616,79,60.8156,-115.7999,13.96,9.22
3347353,Menongue,97,AO,1680458617,93,-14.6585,17.691,63.21,4.12
3985710,Cabo San Lucas,100,MX,1680458526,55,22.8909,-109.9124,89.62,3.0
2208248,Kaitangata,42,NZ,1680458620,91,-46.2817,169.8464,43.84,5.3
130245,Javānrūd,13,IR,1680458621,84,34.7961,46.5172,37.18,6.55
1268015,Kanhangad,19,IN,1680458622,79,12.3081,75.1063,76.89,6.67
1280037,Shache,100,CN,1680458623,20,38.4167,77.2406,55.71,1.14
553518,Kamennogorsk,75,RU,1680458624,86,60.9545,29.1339,32.52,9.6
2137773,Vao,8,NC,1680458625,81,-22.6667,167.4833,77.45,4.79
5870133,Nome,61,US,1680458626,100,64.5011,-165.4064,-7.29,6.29
1513491,Yangi Marg`ilon,75,UZ,1680458628,51,40.4272,71.7189,63.32,9.22
1623197,Tual,100,ID,1680458629,77,-5.6667,132.75,80.87,5.21
3435038,Dolores,91,AR,1680458631,40,-36.3132,-57.6792,74.73,8.23
3645532,Ciudad Bolivar,64,VE,1680458632,28,8.1222,-63.5497,97.9,8.05
2160517,Launceston,13,AU,1680458633,90,-41.45,147.1667,50.14,6.91
5557293,Sitka,12,US,1680458634,78,57.0531,-135.33,39.36,4.18
3691954,Sechura,84,PE,1680458636,61,-5.5569,-80.8222,85.8,9.06
704525,Kozova,100,UA,1680458637,94,49.4354,25.1509,40.6,12.3
1640344,Kendari,100,ID,1680458638,94,-3.945,122.4989,73.94,2.89
2094027,Kieta,24,PG,1680458437,79,-6.2167,155.6333,80.56,4.05
1714733,Dingle,71,PH,1680458640,85,10.9995,122.6711,74.3,5.91
777073,Vadsø,40,NO,1680458642,80,70.0744,29.7487,23.88,6.91
2140466,Moindou,44,NC,1680458643,86,-21.6924,165.677,76.71,2.21
3663516,Mâncio Lima,75,BR,1680458644,70,-7.6142,-72.8958,84.27,6.91
5641727,Bozeman,40,US,1680458645,45,45.6796,-111.0386,36.09,16.11
3838859,Río Gallegos,0,AR,1680458646,41,-51.6226,-69.2181,57.25,18.41
368246,Raja,16,SS,1680458647,13,8.4596,25.678,83.43,4.45
6113406,Prince Rupert,0,CA,1680458424,93,54.3161,-130.3201,37.49,3.44
4047434,Russell,82,US,1680458649,32,32.3502,-85.1999,72.97,5.41
3991169,Estación Queréndaro,40,MX,1680458651,28,19.8667,-100.9167,80.64,5.75
4132093,Springdale,20,US,1680458653,26,36.1867,-94.1288,73.53,23.02
3175788,Oga,91,IT,1680458654,86,46.4631,10.347,41.54,6.33
2121385,Severo-Kuril'sk,96,RU,1680458655,89,50.6789,156.125,30.94,14.54
3421193,Paamiut,18,GL,1680458657,54,61.994,-49.6678,30.54,5.79
933995,Souillac,75,MU,1680458658,89,-20.5167,57.5167,79.18,10.36
3530103,San Miguel de Cozumel,40,MX,1680458657,57,20.5083,-86.9458,87.87,12.66
3430988,Luján,100,AR,1680458662,67,-34.5703,-59.105,71.82,8.88
1626542,Sorong,100,ID,1680458664,86,-0.8833,131.25,77.85,1.54
4033543,Teahupoo,40,PF,1680458665,70,-17.8333,-149.2667,80.56,6.71
533933,Lovozero,97,RU,1680458666,95,68.005,35.0117,12.92,7.36
2171099,Codrington,24,AU,1680458669,91,-38.2667,141.9667,48.76,4.88
237379,Ndélé,1,CF,1680458671,15,8.4109,20.6473,85.32,0.36
7671223,Kloulklubed,53,PW,1680458672,71,7.0419,134.2556,82.24,2.19
3170069,Porto Torres,100,IT,1680458673,77,40.835,8.3972,51.98,18.34
6690297,Saint-Leu,99,RE,1680458674,97,-21.15,55.2833,77.86,4.94
688533,Yalta,41,UA,1680458675,91,44.5,34.1667,49.75,8.72
333750,Jinka,69,ET,1680458678,87,5.65,36.65,63.52,2.84
2381334,Atar,2,MR,1680458679,4,20.5169,-13.0499,97.18,3.11
2034141,Wuchang,93,CN,1680458680,27,44.9143,127.15,53.42,6.35
2184707,Wanaka,76,NZ,1680458681,89,-44.7,169.15,42.12,1.99
3625929,Tucupita,83,VE,1680458682,56,9.0622,-62.051,86.92,6.69
1037125,Montepuez,100,MZ,1680458683,87,-13.1256,38.9997,68.74,3.02
3647444,Calabozo,94,VE,1680458684,28,8.9242,-67.4293,97.07,8.63
3893629,Coquimbo,20,CL,1680458686,72,-29.9533,-71.3436,67.73,13.8
1850523,Tateyama,100,JP,1680458687,69,34.9833,139.8667,53.06,19.26
3598787,Champerico,98,GT,1680458688,60,14.3,-91.9167,93.74,10.38
3028541,Arrondissement de Carpentras,15,FR,1680458524,74,44.0833,5.1667,53.83,14.23
95788,Hīt,2,IQ,1680458691,40,33.6416,42.8251,65.16,7.54
3374210,São Filipe,0,CV,1680458692,52,14.8961,-24.4956,79.81,8.61
5924351,Clyde River,0,CA,1680458693,77,70.4692,-68.5914,-9.17,5.75
3698359,Chicama,66,PE,1680458694,58,-7.8447,-79.1469,84.74,10.58
4717644,Parker,89,US,1680458695,70,32.7668,-97.8003,76.42,3.0
2396518,Port-Gentil,40,GA,1680458696,79,-0.7193,8.7815,84.16,12.66
3452712,Porto Murtinho,0,BR,1680458697,35,-21.6989,-57.8825,95.88,4.9
3015540,Arrondissement de Gourdon,98,FR,1680458698,88,44.75,1.5,45.86,7.14
1524606,Derzhavīnsk,0,KZ,1680458700,55,51.1,66.3167,40.37,15.5
1733782,Labuan,20,MY,1680458701,94,5.2767,115.2417,73.76,0.0
110690,Faya,87,SA,1680458702,69,18.3851,42.4509,62.71,4.7
5955084,Foam Lake,100,CA,1680458703,91,51.65,-103.5343,23.02,14.43
6165406,Thompson,40,CA,1680458705,56,55.7435,-97.8558,5.16,14.97
1279945,Jiuquan,37,CN,1680458706,62,39.7432,98.5174,37.96,2.46
6137462,Saint-Augustin,100,CA,1680458707,99,51.226,-58.6502,31.91,20.42
634093,Tornio,57,FI,1680458708,91,65.8481,24.1466,21.22,4.36
3460697,Itapirapuã,49,BR,1680458709,49,-15.8233,-50.6133,88.77,3.83
3421319,Nuuk,20,GL,1680458711,43,64.1835,-51.7216,30.81,12.66
1278294,Ashta,1,IN,1680458712,27,23.0167,76.7167,78.84,6.4
2169535,Dalby,1,AU,1680458713,82,-27.1833,151.2667,61.25,9.4
2122605,Okhotsk,14,RU,1680458714,72,59.3833,143.3,11.3,15.57
3932145,Pisco,20,PE,1680458715,73,-13.7,-76.2167,78.85,8.05
2136825,Isangel,6,VU,1680458717,85,-19.55,169.2667,78.85,4.59
5367788,Lompoc,5,US,1680458718,70,34.6391,-120.4579,62.85,5.99
6067747,Matagami,100,CA,1680458558,53,49.7502,-77.6328,17.71,3.44
777019,Vardø,75,NO,1680458720,93,70.3705,31.1107,22.98,16.11
7601762,Bairiki Village,20,KI,1680458721,78,1.3292,172.9752,82.4,4.61
2610806,Vágur,92,FO,1680458723,77,61.4732,-6.8119,44.82,8.9
5746545,Portland,100,US,1680458273,86,45.5234,-122.6762,44.74,9.22
1060283,Maroantsetra,100,MG,1680458725,88,-15.4333,49.7333,77.34,2.55
2110560,Yamada,43,JP,1680458726,83,39.4667,141.95,39.13,3.78
3491355,Black River,24,JM,1680458727,55,18.0264,-77.8487,86.85,15.52
3665016,Benjamin Constant,40,BR,1680458728,78,-4.3831,-70.0311,82.53,4.61
3372760,Praia da Vitória,20,PT,1680458729,55,38.7333,-27.0667,64.65,19.08
2025099,Dauriya,96,RU,1680458731,89,49.9333,116.8667,17.15,17.96
4013724,Camargo,100,MX,1680458654,11,27.6667,-105.1667,81.93,17.05
1059051,Miandrivazo,100,MG,1680458733,86,-19.5167,45.4667,78.33,2.33
3447473,Sobradinho,8,BR,1680458734,37,-12.8333,-39.1,91.9,7.87
3836277,Santa Fe,69,AR,1680458735,42,-31.6333,-60.7,82.0,13.0
333795,Jijiga,99,ET,1680458736,80,9.35,42.8,66.54,4.52
2278682,Bensonville,66,LR,1680458737,72,6.4461,-10.6125,82.96,7.16
314967,Fethiye,96,TR,1680458739,60,36.6217,29.1164,58.87,5.77
2643044,Margate,7,GB,1680458740,70,51.3813,1.3862,45.9,8.01
2121052,Sovetskaya Gavan',60,RU,1680458741,96,48.9723,140.2878,30.65,2.71
946058,Mthatha,40,ZA,1680458742,88,-31.5889,28.7844,73.96,6.91
3346821,Ondjiva,77,AO,1680458744,49,-17.0667,15.7333,76.28,5.5
161974,Bereket,100,TM,1680458745,44,39.2446,55.5154,55.02,5.5
906221,Mkushi,99,ZM,1680458748,95,-13.6202,29.3939,63.25,5.44
567183,Danilov,100,RU,1680458749,96,58.1908,40.1717,39.45,4.43
119374,Qeshm,0,IR,1680458750,64,26.9581,56.2719,73.29,29.84
2871045,Mindelheim,100,DE,1680458752,88,48.05,10.4833,45.25,11.5
5866063,Kenai,0,US,1680458753,74,60.5544,-151.2583,30.29,10.36
4017152,Benjamín Hill,1,MX,1680458754,9,30.1667,-111.1,71.82,1.77
2030065,Mandalgovi,32,MN,1680458755,60,45.7625,106.2708,9.55,18.16
4839420,New London,0,US,1680458732,28,41.4834,-72.0662,52.12,8.01
343292,Āsosa,100,ET,1680458757,17,10.0667,34.5333,73.51,3.85
2109528,Buala,100,SB,1680458758,79,-8.145,159.5921,79.32,4.45
2440485,Niamey,85,NE,1680458759,5,13.5137,2.1098,102.49,6.91
4034551,Faanui,100,PF,1680458760,75,-16.4833,-151.75,82.08,7.49
2126682,Bilibino,100,RU,1680458762,99,68.0546,166.4372,-14.39,1.5
5117949,Freeport,0,US,1680458764,27,40.6576,-73.5832,53.29,18.41
1337607,Kudahuvadhoo,70,MV,1680458765,72,2.6708,72.8944,82.81,8.08
5767918,Pierre,0,US,1680458766,49,44.3683,-100.351,50.86,15.99
2125906,Dukat,94,RU,1680458767,100,62.55,155.55,-14.33,3.11
2986626,Plouzané,75,FR,1680458769,71,48.3833,-4.6167,51.98,9.22
1045114,Inhambane,20,MZ,1680458770,73,-23.865,35.3833,77.0,7.25
3871336,Santiago,0,CL,1680458460,23,-33.4569,-70.6483,87.28,8.05
910111,Livingstone,57,ZM,1680458772,68,-17.8419,25.8543,69.98,4.79
2108857,Gizo Government Station,92,SB,1680458773,82,-8.103,156.8419,80.29,14.16
1222396,Kuah,20,MY,1680458775,78,6.3265,99.8432,80.58,4.61
4566022,Loíza,40,PR,1680458776,61,18.4313,-65.8802,87.64,21.85
3649408,Altagracia de Orituco,78,VE,1680458777,36,9.8601,-66.3814,90.93,6.53
6058024,Lloydminster,100,CA,1680458609,93,53.2835,-110.0016,25.02,9.22
1254046,Tura,13,IN,1680458780,79,25.5198,90.2201,64.08,4.99
3628503,San Carlos,92,VE,1680458782,45,9.6612,-68.5827,88.83,1.7
5887916,Athabasca,100,CA,1680458783,78,54.7169,-113.2854,35.71,6.87
2655672,Billericay,8,GB,1680458784,67,51.6287,0.4196,50.43,4.0
2510485,Tías,20,ES,1680458785,60,28.9611,-13.645,69.48,25.32
3628473,San Cristobal,97,VE,1680458786,59,7.7669,-72.225,82.58,7.45
5864145,Homer,0,US,1680458787,63,59.6425,-151.5483,33.69,6.91
3840300,Presidencia Roque Sáenz Peña,0,AR,1680458788,32,-26.7852,-60.4388,94.24,6.93
3887344,Illapel,24,CL,1680458789,24,-31.6308,-71.1653,83.7,7.43
712387,Berezanka,100,UA,1680458791,95,46.8526,31.388,47.21,8.57
3450206,Santa Helena de Goiás,17,BR,1680458792,57,-17.8136,-50.5969,83.52,3.49
5423294,Golden,40,US,1680458793,15,39.7555,-105.2211,66.02,8.99
5010548,South Lyon,30,US,1680458794,59,42.4606,-83.6516,44.65,5.01
2057087,Kupang,100,ID,1680458795,87,-10.1667,123.5833,77.07,4.27
2438855,Téra,100,NE,1680458797,8,14.0078,0.7531,93.16,7.2
4036284,Alofi,32,NU,1680458798,88,-19.0595,-169.9187,76.89,10.36
5391959,San Francisco,75,US,1680458316,68,37.7749,-122.4194,57.18,17.0
1792916,Tianpeng,95,CN,1680458800,85,30.9866,103.9393,64.87,1.43
1650527,Balikpapan,20,ID,1680458801,100,-1.2675,116.8289,76.19,8.05
2024461,Ekimchan,94,RU,1680458802,99,53.0667,132.9667,33.94,3.11
5713587,Bend,14,US,1680458803,57,44.0582,-121.3153,40.86,8.99
2024626,Dzhebariki-Khaya,100,RU,1680458804,98,62.2167,135.8,3.38,4.14
933726,Tshane,89,BW,1680458805,35,-24.0196,21.8684,77.11,12.59
2162683,Innisfail,54,AU,1680458806,92,-17.5333,146.0333,76.17,2.66
2638534,Sandwick,100,GB,1680458807,87,60.0,-1.25,44.42,12.66
2444995,Filingué,90,NE,1680458808,7,14.3521,3.3168,91.08,7.85
2031964,Darhan,81,MN,1680458809,51,49.4867,105.9228,14.65,3.06
3998291,Loreto,96,MX,1680458535,25,22.2667,-101.9667,77.7,5.79
2079582,Alyangula,24,AU,1680458812,70,-13.8483,136.4192,81.63,6.46
3377408,Linden,93,GY,1680458730,47,6.0,-58.3,87.55,6.69
6089179,Normandin,32,CA,1680458814,61,48.8333,-72.5321,19.85,14.99
2019118,Nizhniy Tsasuchey,49,RU,1680458815,85,50.5167,115.1333,15.46,14.58
1514588,Andijan,92,UZ,1680458816,31,40.7821,72.3442,63.68,0.63
1643837,Gorontalo,100,ID,1680458817,94,0.5412,123.0595,74.3,2.3
6104820,Pinawa,97,CA,1680458818,66,50.1489,-95.8811,39.27,7.29
1812805,Dinghaicun,98,CN,1680458819,82,26.2847,119.7936,56.77,8.81
3939761,Hualmay,54,PE,1680458820,73,-11.0964,-77.6139,79.74,9.22
3662489,Santa Isabel Rio Negro,100,BR,1680458821,92,-0.4139,-65.0192,78.01,0.51
3929631,San Isidro,0,PE,1680458822,58,-12.1167,-77.05,83.79,16.11
1528606,Kemin,0,KG,1680458823,27,42.7846,75.6892,42.67,6.49
3419842,Sisimiut,100,GL,1680458825,65,66.9395,-53.6735,14.05,4.99
5411479,Alamosa,0,US,1680458826,11,37.4695,-105.87,57.18,6.67
2125693,Evensk,100,RU,1680458827,94,61.95,159.2333,18.68,9.42
86049,Jalu,0,LY,1680458828,10,29.0331,21.5482,74.8,10.22
2164837,Goulburn,28,AU,1680458830,94,-34.75,149.7167,52.79,1.99
4760059,Fredericksburg,0,US,1680458689,42,38.3032,-77.4605,61.02,12.66
286245,Sur,63,OM,1680458833,61,22.5667,59.5289,79.7,6.06
2686469,Örnsköldsvik,49,SE,1680458836,80,63.2909,18.7153,23.95,2.3
2189343,Kaeo,72,NZ,1680458837,95,-35.1,173.7833,55.33,4.88
5861897,Fairbanks,100,US,1680458838,87,64.8378,-147.7164,27.09,6.91
1177446,Gwadar,38,PK,1680458839,82,25.1216,62.3254,76.84,11.3
3462956,Frederico Westphalen,3,BR,1680458841,16,-27.3592,-53.3944,83.71,1.52
1817990,Anqiu,87,CN,1680458842,61,36.4342,119.1925,49.35,6.73
3671519,Puerto Carreño,94,CO,1680458843,31,6.189,-67.4859,97.72,4.76
217570,Buta,72,CD,1680458844,53,2.7858,24.73,80.4,2.62
1244926,Hambantota,39,LK,1680458845,83,6.1241,81.1185,77.22,3.33
3355672,Lüderitz,54,NA,1680458846,84,-26.6481,15.1594,62.58,12.48
3696183,Iquitos,75,PE,1680458847,84,-3.7481,-73.2472,84.24,5.75
3067580,Přerov,78,CZ,1680458848,77,49.4551,17.4509,40.53,13.18
1271113,Godda,36,IN,1680458849,38,24.8333,87.2167,78.62,2.06
2512186,Puerto del Rosario,0,ES,1680458851,78,28.5004,-13.8627,69.55,20.71
1862505,Hirara,71,JP,1680458852,63,24.8,125.2833,69.93,15.3
3579925,St. George's,20,GD,1680458853,70,12.0564,-61.7485,83.88,23.02
3441890,Departamento de Maldonado,87,UY,1680458854,37,-34.6667,-54.9167,76.39,6.08
1337610,Thinadhoo,76,MV,1680458855,72,0.5333,72.9333,82.4,6.78
1274055,Chittarkonda,45,IN,1680458857,66,18.1167,82.0833,76.12,3.11
2021980,Davenda,100,RU,1680458858,94,53.5556,119.317,12.97,4.94
961226,Ritchie,100,ZA,1680458859,67,-29.038,24.6028,66.61,17.83
1695546,Pandan,97,PH,1680458860,82,14.0453,124.1694,78.06,5.55
2178753,Kirakira,95,SB,1680458861,83,-10.4544,161.9205,79.48,7.0
2214827,Mizdah,2,LY,1680458862,42,31.4451,12.9801,66.45,32.06
4013593,Cocorit,82,MX,1680458863,8,27.5833,-109.9667,84.54,5.93
2156034,Muswellbrook,71,AU,1680458864,95,-32.2667,150.9,58.33,3.13
3452599,Posse,60,BR,1680458865,45,-14.0931,-46.3694,82.96,4.52
2123814,Leningradskiy,96,RU,1680458866,94,69.3833,178.4167,-17.75,8.1
1490796,Strezhevoy,100,RU,1680458868,97,60.7333,77.5889,35.33,10.36
1253237,Verāval,1,IN,1680458869,74,20.9,70.3667,75.76,9.91
2194098,Ahipara,53,NZ,1680458870,87,-35.1667,173.1667,61.84,10.74
4149959,Cape Canaveral,0,US,1680458871,62,28.4058,-80.6048,90.05,17.27
1626703,Soe,92,ID,1680458833,90,-9.8607,124.284,64.18,3.11
2037078,Hailar,100,CN,1680458873,69,49.2,119.7,28.6,20.42
5600685,Meridian,40,US,1680458761,48,43.6121,-116.3915,48.38,4.61
2450173,Taoudenni,2,ML,1680458876,5,22.6783,-3.9836,92.34,1.05
1688781,City of San Pedro,20,PH,1680458877,76,14.35,121.0167,81.63,3.44
1715015,Dicabisagan,58,PH,1680458878,89,17.0818,122.4157,74.75,2.33
3401148,Cururupu,63,BR,1680458721,86,-1.8283,-44.8683,80.51,3.91
2394819,Cotonou,85,BJ,1680458743,78,6.3654,2.4183,82.92,11.43
567806,Chuchkovo,88,RU,1680458882,85,54.2693,41.4465,43.0,6.82
962367,Richards Bay,3,ZA,1680458883,83,-28.783,32.0377,73.89,12.08
1650232,Banjar,100,ID,1680458884,85,-8.19,114.9675,77.23,2.06
6690296,Saint-Joseph,100,RE,1680458886,82,-21.3667,55.6167,77.38,5.86
5856516,‘Āhuimanu,100,US,1680458887,88,21.4447,-157.8378,75.16,6.91
3664078,Humaitá,81,BR,1680458888,68,-7.5061,-63.0208,84.45,5.84
3393692,Itarema,81,BR,1680458889,90,-2.9248,-39.9167,76.91,8.88
1640660,Gondanglegi,100,ID,1680458890,93,-7.7479,112.0132,74.68,2.8
3453827,Pindobaçu,31,BR,1680458891,25,-10.7417,-40.3608,92.88,8.99
6255012,Flinders,63,AU,1680458892,88,-34.5833,150.8552,62.19,3.0
3512067,Baní,0,DO,1680458894,51,18.2833,-70.3333,89.04,15.14
6541093,Rosignano Marittimo,83,IT,1680458895,65,43.4079,10.4729,57.88,7.92
934649,Cap Malheureux,100,MU,1680458896,74,-19.9842,57.6142,79.47,3.0
2218840,Bani Walid,10,LY,1680458897,26,31.7566,13.9942,76.5,20.56
129512,Kalāleh,100,IR,1680458898,44,37.3807,55.4916,52.34,5.55
6355222,Yulara,9,AU,1680458900,51,-25.2406,130.9889,70.74,9.17
1180281,Dera Ismail Khan,100,PK,1680458901,72,31.8327,70.9024,65.77,8.16
2809025,Bad Wildbad,100,DE,1680458902,98,48.75,8.55,45.45,7.47
3449749,Santa Vitória,5,BR,1680458791,46,-18.8386,-50.1214,86.83,1.05
10722858,Forsytheganj,100,BY,1680458904,95,52.6333,29.7333,45.86,2.64
1528998,Yumen,1,CN,1680458905,26,40.2833,97.2,37.17,1.16
4031637,Lavrentiya,14,RU,1680458906,90,65.5833,-171.0,-7.24,6.8
518325,Novopokrovskaya,32,RU,1680458908,61,45.9514,40.7006,49.77,9.75
1253628,Ginda,63,IN,1680458909,69,30.6945,78.4932,46.78,5.97
5666176,Miles City,20,US,1680458734,29,46.4083,-105.8406,47.37,33.38
5380437,Pacific Grove,75,US,1680458911,76,36.6177,-121.9166,56.01,11.99
1649378,Tambun,20,ID,1680458912,88,-6.2641,107.0712,82.49,3.44
1106643,Quatre Cocos,93,MU,1680458914,82,-20.2078,57.7625,79.09,6.8
3374333,Praia,0,CV,1680458915,39,14.9215,-23.5087,86.54,14.97
336454,Ginir,87,ET,1680458916,85,7.1333,40.7,59.95,3.78
1512101,Agirish,48,RU,1680458917,92,61.9247,63.0231,32.7,6.46
2429344,Kyabé,5,TD,1680458918,16,9.4515,18.9449,93.15,1.77
1492566,Severo-Yeniseyskiy,100,RU,1680458919,92,60.3725,93.0408,17.29,12.66
3393115,Paracuru,100,BR,1680458920,79,-3.41,-39.0306,82.11,5.95
2304548,Anloga,94,GH,1680458921,79,5.7947,0.8973,82.99,13.85
4301317,Morehead,0,US,1680458923,47,37.2711,-87.1764,59.79,5.75
3996387,Matehuala,100,MX,1680458695,38,23.65,-100.65,79.03,1.25
2027042,Batagay-Alyta,100,RU,1680458925,83,67.8006,130.4114,4.3,5.97
485215,Synya,58,RU,1680458926,97,65.3718,58.0387,14.56,3.51
521776,Nikol'sk,100,RU,1680458927,78,53.7189,46.0712,43.81,4.21
5972291,Havre-St-Pierre,75,CA,1680458929,86,50.2334,-63.5986,34.16,20.71
4565090,Guánica,2,PR,1680458930,65,17.9716,-66.908,90.28,18.75
1486321,Yar-Sale,100,RU,1680458931,86,66.8333,70.8333,18.72,9.71
2015852,Svetlaya,94,RU,1680458932,77,46.5389,138.3297,36.32,5.03
70979,Sayyan,58,YE,1680458933,57,15.1718,44.3244,63.68,3.18
1502073,Krasnosel'kup,100,RU,1680458935,97,65.7,82.4667,32.94,17.29
